     3.02           OBSERVATION DATA    M: Mixed            RINEX VERSION / TYPE
CHC                 CHC                 20230908 014840 UTC PGM / RUN BY / DATE 
1000                                                        MARKER NAME         
1000                                                        MARKER NUMBER       
ls7                 ls7                                     OBSERVER / AGENCY   
3487421             PrinCe i50          1.2.1               REC # / TYPE / VERS 
3487421             CHCI50                                  ANT # / TYPE        
   451899.9923  3645384.8740  5196803.8340                  APPROX POSITION XYZ 
        1.5040        0.0000        0.0000                  ANTENNA: DELTA H/E/N
HUACE ANT PHASECENTER                                       COMMENT             
G   24 C1C L1C D1C S1C C2P L2P D2P S2P C2D L2D D2D S2D C2X  SYS / # / OBS TYPES 
       L2X D2X S2X C5I L5I D5I S5I C5Q L5Q D5Q S5Q          SYS / # / OBS TYPES 
R   12 C1C L1C D1C S1C C2C L2C D2C S2C C2P L2P D2P S2P      SYS / # / OBS TYPES 
E   12 C1X L1X D1X S1X C5X L5X D5X S5X C7X L7X D7X S7X      SYS / # / OBS TYPES 
C   24 C1I L1I D1I S1I C1Q L1Q D1Q S1Q C7I L7I D7I S7I C7Q  SYS / # / OBS TYPES 
       L7Q D7Q S7Q C6I L6I D6I S6I C6Q L6Q D6Q S6Q          SYS / # / OBS TYPES 
     1.000                                                  INTERVAL            
  2023     9     8     1    50   12.0000000     GPS         TIME OF FIRST OBS   
G                                                           SYS / PHASE SHIFT   
R                                                           SYS / PHASE SHIFT   
E                                                           SYS / PHASE SHIFT   
C                                                           SYS / PHASE SHIFT   
 C1C    0.000 C1P    0.000 C2C    0.000 C2P    0.000        GLONASS COD/PHS/BIS 
                                                            END OF HEADER       
> 2023  9  8  1 50 12.0000000  0 25
G05  20426924.748   107344214.016        1143.517          49.750           0.000           0.000           0.000           0.000    20426923.118    83644835.514         891.072          49.250           0.000           0.000           0.000           0.000           0.000           0.000           0.000           0.000           0.000           0.000           0.000           0.000  
G11  22278140.148   117072415.985       -2621.450          45.750           0.000           0.000           0.000           0.000    22278140.695    91225260.448       -2042.756          42.000           0.000           0.000           0.000           0.000           0.000           0.000           0.000           0.000           0.000           0.000           0.000           0.000  
G18  24429573.973   128378279.410        3433.967          41.000           0.000           0.000           0.000           0.000    24429565.818   100035002.025        2675.937          40.000           0.000           0.000           0.000           0.000           0.000           0.000           0.000           0.000    24429574.287    95866896.937        2564.131          45.000  
G20  20800350.442   109306576.241       -1247.566          46.250           0.000           0.000           0.000           0.000    20800349.577    85173955.024        -972.135          43.000           0.000           0.000           0.000           0.000           0.000           0.000           0.000           0.000           0.000           0.000           0.000           0.000  
G25  23298419.416   122434023.478       -3223.192          43.000           0.000           0.000           0.000           0.000    23298421.537    95403145.281       -2512.556          43.750           0.000           0.000           0.000           0.000           0.000           0.000           0.000           0.000    23298418.356    91427997.702       -2407.371          48.250  
G29  20779408.718   109196531.940        1217.635          48.500           0.000           0.000           0.000           0.000    20779406.611    85088192.458         948.734          48.250           0.000           0.000           0.000           0.000           0.000           0.000           0.000           0.000           0.000           0.000           0.000           0.000  
E02  27749449.397   145824342.321       -3152.532          43.250    27749451.062   108894808.109       -2354.828          44.750    27749450.719   111735537.855       -2416.204          43.250  
E04         0.000           0.000           0.000           0.000    26850142.780          -0.000           0.000          28.500    26850140.827          -0.000           0.000          29.250  
E05  27418273.858   144084014.055        3234.059          39.500    27418277.822   107595211.203        2415.208          45.500    27418277.393   110402040.456        2478.302          45.750  
E09  25650481.038   134794188.960        1518.166          44.750    25650480.495   100657995.555        1133.620          48.250    25650480.464   103283853.959        1163.304          48.500  
E15  27267477.087   143291557.858        2710.709          40.000    27267478.511   107003443.479        2024.331          42.250    27267478.357   109794835.304        2077.066          41.250  
E27  26346347.121   138450989.115        1068.259          38.750    26346345.792   103388719.602         797.813          42.750    26346345.883   106085817.322         818.339          42.250  
E30  25641257.335   134745712.366       -1722.859          43.750    25641256.088   100621796.965       -1286.515          47.250    25641256.252   103246714.084       -1320.153          47.500  
C02  38886648.212   202492982.636         147.132          41.250           0.000           0.000           0.000           0.000    38886630.009   156580344.433         114.399          47.000           0.000           0.000           0.000           0.000    38886633.983   164542074.854         120.034          44.000           0.000           0.000           0.000           0.000  
C03  39056660.813   203378284.363         121.081          43.500           0.000           0.000           0.000           0.000    39056644.471   157264922.116          93.533          45.000           0.000           0.000           0.000           0.000    39056646.520   165261453.628          98.263          44.000           0.000           0.000           0.000           0.000  
C05  39389864.194   205113353.964         155.072          41.250           0.000           0.000           0.000           0.000    39389847.693   158606590.811         119.238          45.500           0.000           0.000           0.000           0.000    39389850.216   166671347.153         125.588          44.500           0.000           0.000           0.000           0.000  
C07  40379210.746   210265149.278       -1489.776          42.250           0.000           0.000           0.000           0.000    40379195.424   162590288.637       -1151.805          40.250           0.000           0.000           0.000           0.000    40379194.110   170857583.220       -1211.018          40.250           0.000           0.000           0.000           0.000  
C08  35781495.849   186323639.054          12.641          45.500           0.000           0.000           0.000           0.000    35781476.365   144077178.673           9.614          48.750           0.000           0.000           0.000           0.000    35781476.934   151403140.224          10.460          47.750           0.000           0.000           0.000           0.000  
C10  39105360.071   203631865.608       -1445.642          41.250           0.000           0.000           0.000           0.000    39105346.195   157461022.765       -1117.266          46.000           0.000           0.000           0.000           0.000    39105344.812   165467509.875       -1174.417          44.250           0.000           0.000           0.000           0.000  
C11  22234539.274   115781081.280        1830.598          48.000           0.000           0.000           0.000           0.000    22234522.935    89529209.321        1415.231          52.500           0.000           0.000           0.000           0.000    22234522.878    94081543.008        1487.519          52.250           0.000           0.000           0.000           0.000  
C12  21780585.610   113417226.044       -1258.335          47.500           0.000           0.000           0.000           0.000    21780569.608    87701328.224        -973.332          52.250           0.000           0.000           0.000           0.000    21780570.111    92160719.563       -1022.481          52.250           0.000           0.000           0.000           0.000  
C13  35948623.400   187193917.551         298.598          49.000           0.000           0.000           0.000           0.000    35948611.589   144750162.358         231.080          49.000           0.000           0.000           0.000           0.000    35948611.269   152110337.336         242.650          49.500           0.000           0.000           0.000           0.000  
C21  23290073.198   121277523.520        2384.490          50.500           0.000           0.000           0.000           0.000           0.000           0.000           0.000           0.000           0.000           0.000           0.000           0.000    23290055.801    98547846.214        1937.443          52.000           0.000           0.000           0.000           0.000  
C22  23051609.960   120035785.553        -840.083          47.000           0.000           0.000           0.000           0.000           0.000           0.000           0.000           0.000           0.000           0.000           0.000           0.000    23051591.642    97538827.822        -682.595          49.250           0.000           0.000           0.000           0.000  
C34  21576922.301   112356705.445         529.916          51.000           0.000           0.000           0.000           0.000           0.000           0.000           0.000           0.000           0.000           0.000           0.000           0.000    21576909.398    91298965.167         430.472          52.500           0.000           0.000           0.000           0.000  
> 2023  9  8  1 50 13.0000000  0 25
G05  20426706.574   107343067.504        1141.287          49.500           0.000           0.000           0.000           0.000    20426704.905    83643942.118         889.513          49.250           0.000           0.000           0.000           0.000           0.000           0.000           0.000           0.000           0.000           0.000           0.000           0.000  
G11  22278638.524   117075034.894       -2621.550          45.000           0.000           0.000           0.000           0.000    22278638.986    91227301.096       -2042.795          41.500           0.000           0.000           0.000           0.000           0.000           0.000           0.000           0.000           0.000           0.000           0.000           0.000  
G18  24428920.448   128374845.034        3432.441          42.750           0.000           0.000           0.000           0.000    24428918.162   100032325.959        2674.216          43.000           0.000           0.000           0.000           0.000           0.000           0.000           0.000           0.000    24428920.732    95864332.323        2563.070          47.000  
G20  20800587.288   109307820.773       -1248.941          45.750           0.000           0.000           0.000           0.000    20800586.393    85174924.786        -973.203          42.500           0.000           0.000           0.000           0.000           0.000           0.000           0.000           0.000           0.000           0.000           0.000           0.000  
G25  23299032.623   122437245.979       -3225.192          42.250           0.000           0.000           0.000           0.000    23299034.636    95405656.297       -2513.528          44.500           0.000           0.000           0.000           0.000           0.000           0.000           0.000           0.000    23299031.564    91430404.120       -2408.930          48.250  
G29  20779176.426   109195311.344        1215.277          49.000           0.000           0.000           0.000           0.000    20779174.325    85087241.343         946.901          49.250           0.000           0.000           0.000           0.000           0.000           0.000           0.000           0.000           0.000           0.000           0.000           0.000  
E02  27750049.285   145827494.675       -3154.153          43.000    27750050.930   108897162.095       -2355.844          44.500    27750050.585   111737953.265       -2417.316          43.000  
E04         0.000           0.000           0.000           0.000    26850359.850          -0.000           0.000          27.000    26850358.446          -0.000           0.000          26.500  
E05  27417658.165   144080778.736        3232.902          39.500    27417662.140   107592795.173        2414.705          44.000    27417661.699   110399561.402        2478.062          44.500  
E09  25650191.711   134792668.491        1518.182          43.500    25650191.148   100656860.112        1133.385          47.750    25650191.141   103282688.925        1163.165          48.000  
E15  27266961.288   143288846.402        2709.251          42.000    27266962.524   107001418.708        2022.694          44.500    27266962.344   109792757.689        2075.635          44.250  
E27  26346143.437   138449919.630        1066.403          40.250    26346142.227   103387920.964         796.366          44.500    26346142.312   106084997.844         816.903          43.750  
E30  25641584.887   134747433.712       -1725.229          45.250    25641583.652   100623082.385       -1288.225          49.000    25641583.824   103248033.040       -1321.874          49.000  
C02  38886619.455   202492833.072         145.952          41.000           0.000           0.000           0.000           0.000    38886601.318   156580228.782         112.996          46.500           0.000           0.000           0.000           0.000    38886605.248   164541953.327         118.905          44.000           0.000           0.000           0.000           0.000  
C03  39056637.277   203378161.685         120.309          43.000           0.000           0.000           0.000           0.000    39056620.928   157264827.251          92.438          43.250           0.000           0.000           0.000           0.000    39056622.949   165261353.919          97.570          42.500           0.000           0.000           0.000           0.000  
C05  39389834.232   205113197.995         153.234          41.250           0.000           0.000           0.000           0.000    39389817.704   158606470.172         118.025          45.500           0.000           0.000           0.000           0.000    39389820.264   166671220.374         124.242          44.750           0.000           0.000           0.000           0.000  
C07  40379496.686   210266638.090       -1490.558          41.500           0.000           0.000           0.000           0.000    40379481.402   162591439.879       -1152.688          39.500           0.000           0.000           0.000           0.000    40379480.039   170858793.040       -1211.403          39.750           0.000           0.000           0.000           0.000  
C08  35781492.726   186323622.838          11.149          46.000           0.000           0.000           0.000           0.000    35781473.243   144077166.118           8.211          48.500           0.000           0.000           0.000           0.000    35781473.825   151403127.041           9.214          48.000           0.000           0.000           0.000           0.000  
C10  39105637.330   203633309.354       -1446.900          40.500           0.000           0.000           0.000           0.000    39105623.469   157462139.136       -1118.596          44.500           0.000           0.000           0.000           0.000    39105622.067   165468683.006       -1175.210          43.750           0.000           0.000           0.000           0.000  
C11  22234187.254   115779248.253        1828.407          48.750           0.000           0.000           0.000           0.000    22234170.928    89527791.919        1413.605          53.250           0.000           0.000           0.000           0.000    22234170.860    94080053.515        1485.670          53.000           0.000           0.000           0.000           0.000  
C12  21780826.645   113418481.198       -1260.548          47.000           0.000           0.000           0.000           0.000    21780810.639    87702298.771        -975.008          51.750           0.000           0.000           0.000           0.000    21780811.141    92161739.440       -1023.403          52.000           0.000           0.000           0.000           0.000  
C13  35948565.360   187193615.365         296.681          49.500           0.000           0.000           0.000           0.000    35948553.560   144749928.695         229.555          49.250           0.000           0.000           0.000           0.000    35948553.233   152110091.788         241.270          49.750           0.000           0.000           0.000           0.000  
C21  23289614.820   121275136.604        2382.580          49.750           0.000           0.000           0.000           0.000           0.000           0.000           0.000           0.000           0.000           0.000           0.000           0.000    23289597.416    98545906.633        1936.158          51.250           0.000           0.000           0.000           0.000  
C22  23051770.806   120036623.042        -841.168          45.750           0.000           0.000           0.000           0.000           0.000           0.000           0.000           0.000           0.000           0.000           0.000           0.000    23051752.487    97539508.325        -683.304          49.000           0.000           0.000           0.000           0.000  
C34  21576819.890   112356172.172         527.860          51.500           0.000           0.000           0.000           0.000           0.000           0.000           0.000           0.000           0.000           0.000           0.000           0.000    21576806.994    91298531.844         428.902          53.250           0.000           0.000           0.000           0.000  
> 2023  9  8  1 50 14.0000000  0 25
G05  20426488.629   107341922.122        1141.064          49.750           0.000           0.000           0.000           0.000    20426486.942    83643049.615         889.117          49.250           0.000           0.000           0.000           0.000           0.000           0.000           0.000           0.000           0.000           0.000           0.000           0.000  
G11  22279137.036   117077654.542       -2623.031          45.750           0.000           0.000           0.000           0.000    22279137.458    91229342.422       -2044.002          41.750           0.000           0.000           0.000           0.000           0.000           0.000           0.000           0.000           0.000           0.000           0.000           0.000  
G18  24428267.036   128371411.213        3432.771          43.500           0.000           0.000           0.000           0.000    24428265.420   100029650.229        2674.691          42.000           0.000           0.000           0.000           0.000           0.000           0.000           0.000           0.000    24428267.290    95861768.081        2563.640          46.000  
G20  20800824.315   109309066.326       -1249.634          46.250           0.000           0.000           0.000           0.000    20800823.426    85175895.357        -973.745          42.500           0.000           0.000           0.000           0.000           0.000           0.000           0.000           0.000           0.000           0.000           0.000           0.000  
G25  23299645.957   122440469.314       -3225.137          42.000           0.000           0.000           0.000           0.000    23299647.954    95408167.949       -2513.562          44.000           0.000           0.000           0.000           0.000           0.000           0.000           0.000           0.000    23299644.915    91432811.087       -2408.695          48.500  
G29  20778944.359   109194091.856        1215.355          49.250           0.000           0.000           0.000           0.000    20778942.246    85086291.079         946.818          48.500           0.000           0.000           0.000           0.000           0.000           0.000           0.000           0.000           0.000           0.000           0.000           0.000  
E02  27750649.257   145830647.370       -3153.416          43.250    27750650.910   108899516.405       -2355.319          45.000    27750650.555   111740368.992       -2416.998          43.750  
E04         0.000           0.000           0.000           0.000    26850573.502          -0.000           0.000          30.750    26850573.325   108116135.113        -872.984          33.000  
E05  27417042.680   144077543.765        3232.589          39.500    27417046.558   107590379.517        2414.353          44.500    27417046.126   110397082.729        2477.218          44.500  
E09  25649902.537   134791148.878        1516.377          44.250    25649901.980   100655725.339        1132.402          48.500    25649901.998   103281524.566        1161.840          48.750  
E15  27266445.627   143286135.500        2709.815          42.000    27266446.632   106999394.330        2023.644          43.250    27266446.475   109790680.518        2076.306          42.250  
E27  26345939.886   138448851.118        1066.208          39.250    26345938.861   103387123.058         795.969          44.000    26345938.940   106084179.109         816.808          43.250  
E30  25641912.605   134749155.936       -1724.642          44.750    25641911.389   100624368.473       -1288.057          47.750    25641911.560   103249352.662       -1321.527          48.250  
C02  38886590.788   202492683.874         146.673          41.250           0.000           0.000           0.000           0.000    38886572.699   156580113.447         113.343          46.500           0.000           0.000           0.000           0.000    38886576.610   164541832.108         119.352          43.750           0.000           0.000           0.000           0.000  
C03  39056613.792   203378039.375         119.946          43.250           0.000           0.000           0.000           0.000    39056597.415   157264732.660          92.896          44.000           0.000           0.000           0.000           0.000    39056599.439   165261254.547          97.476          43.000           0.000           0.000           0.000           0.000  
C05  39389804.335   205113042.408         154.239          41.000           0.000           0.000           0.000           0.000    39389787.807   158606349.881         118.483          45.500           0.000           0.000           0.000           0.000    39389790.395   166671093.950         124.722          45.000           0.000           0.000           0.000           0.000  
C07  40379782.651   210268127.303       -1490.687          41.250           0.000           0.000           0.000           0.000    40379767.493   162592591.516       -1153.342          39.750           0.000           0.000           0.000           0.000    40379766.011   170860003.175       -1211.627          39.250           0.000           0.000           0.000           0.000  
C08  35781489.734   186323607.206          11.300          46.000           0.000           0.000           0.000           0.000    35781470.243   144077154.031           8.619          48.500           0.000           0.000           0.000           0.000    35781470.822   151403114.328           9.466          48.000           0.000           0.000           0.000           0.000  
C10  39105914.651   203634753.501       -1446.743          40.250           0.000           0.000           0.000           0.000    39105900.799   157463255.858       -1118.160          44.500           0.000           0.000           0.000           0.000    39105899.434   165469856.499       -1175.199          44.250           0.000           0.000           0.000           0.000  
C11  22233835.397   115777416.074        1828.787          49.000           0.000           0.000           0.000           0.000    22233819.075    89526375.135        1414.024          53.250           0.000           0.000           0.000           0.000    22233819.004    94078564.712        1485.988          52.750           0.000           0.000           0.000           0.000  
C12  21781067.826   113419737.145       -1260.235          47.250           0.000           0.000           0.000           0.000    21781051.827    87703269.959        -974.701          52.000           0.000           0.000           0.000           0.000    21781052.345    92162760.025       -1024.023          52.250           0.000           0.000           0.000           0.000  
C13  35948507.453   187193313.768         297.318          49.500           0.000           0.000           0.000           0.000    35948495.640   144749695.469         230.175          49.000           0.000           0.000           0.000           0.000    35948495.310   152109846.710         241.605          49.750           0.000           0.000           0.000           0.000  
C21  23289156.604   121272750.557        2382.619          49.750           0.000           0.000           0.000           0.000           0.000           0.000           0.000           0.000           0.000           0.000           0.000           0.000    23289139.212    98543967.793        1935.638          51.250           0.000           0.000           0.000           0.000  
C22  23051931.822   120037461.484        -842.129          47.000           0.000           0.000           0.000           0.000           0.000           0.000           0.000           0.000           0.000           0.000           0.000           0.000    23051913.527    97540189.662        -684.333          49.500           0.000           0.000           0.000           0.000  
C34  21576717.662   112355639.857         528.033          51.500           0.000           0.000           0.000           0.000           0.000           0.000           0.000           0.000           0.000           0.000           0.000           0.000    21576704.774    91298099.285         428.834          53.000           0.000           0.000           0.000           0.000  
> 2023  9  8  1 50 15.0000000  0 25
G05  20426270.787   107340777.267        1141.360          50.000           0.000           0.000           0.000           0.000    20426269.098    83642157.527         889.128          49.000           0.000           0.000           0.000           0.000           0.000           0.000           0.000           0.000           0.000           0.000           0.000           0.000  
G11  22279635.625   117080274.641       -2622.360          46.750           0.000           0.000           0.000           0.000    22279636.059    91231384.055       -2043.493          42.500           0.000           0.000           0.000           0.000           0.000           0.000           0.000           0.000           0.000           0.000           0.000           0.000  
G18  24427613.572   128367977.113        3432.553          42.000           0.000           0.000           0.000           0.000    24427612.265   100026974.358        2674.685          39.750           0.000           0.000           0.000           0.000           0.000           0.000           0.000           0.000    24427613.803    95859203.714        2563.271          45.000  
G20  20801061.460   109310312.508       -1249.293          46.500           0.000           0.000           0.000           0.000    20801060.586    85176866.401        -973.482          43.000           0.000           0.000           0.000           0.000           0.000           0.000           0.000           0.000           0.000           0.000           0.000           0.000  
G25  23300259.269   122443692.497       -3225.192          42.500           0.000           0.000           0.000           0.000    23300261.283    95410679.522       -2513.120          43.500           0.000           0.000           0.000           0.000           0.000           0.000           0.000           0.000    23300258.246    91435217.999       -2408.639          48.500  
G29  20778712.353   109192872.703        1215.149          48.750           0.000           0.000           0.000           0.000    20778710.207    85085341.094         946.723          47.750           0.000           0.000           0.000           0.000           0.000           0.000           0.000           0.000           0.000           0.000           0.000           0.000  
E02  27751249.167   145833799.884       -3153.516          41.500    27751250.821   108901870.547       -2355.247          44.250    27751250.463   111742784.538       -2416.785          42.750  
E04         0.000           0.000           0.000           0.000    26850789.072   105368265.100        -850.946          34.000    26850789.320   108117006.002        -872.140          34.750  
E05  27416427.257   144074308.968        3233.265          40.000    27416430.997   107587963.917        2414.777          46.250    27416430.571   110394604.126        2477.749          45.750  
E09  25649613.502   134789629.927        1516.959          45.000    25649612.949   100654591.090        1132.447          49.250    25649612.971   103280360.701        1162.131          49.500  
E15  27265929.808   143283424.311        2709.295          40.750    27265930.725   106997369.746        2023.454          42.500    27265930.572   109788603.155        2076.094          41.000  
E27  26345736.650   138447782.911        1065.643          38.250    26345735.543   103386325.338         795.651          42.750    26345735.644   106083360.603         816.249          42.500  
E30  25642240.359   134750878.223       -1724.994          43.250    25642239.121   100625654.601       -1288.247          46.250    25642239.302   103250672.368       -1321.941          46.750  
C02  38886562.092   202492534.573         147.037          41.000           0.000           0.000           0.000           0.000    38886544.026   156579997.987         113.622          46.000           0.000           0.000           0.000           0.000    38886547.939   164541710.790         119.274          43.750           0.000           0.000           0.000           0.000  
C03  39056590.308   203377917.107         120.980          43.250           0.000           0.000           0.000           0.000    39056573.948   157264638.133          93.192          45.000           0.000           0.000           0.000           0.000    39056575.956   165261155.190          97.895          43.500           0.000           0.000           0.000           0.000  
C05  39389774.399   205112886.579         153.926          40.500           0.000           0.000           0.000           0.000    39389757.869   158606229.324         118.835          45.500           0.000           0.000           0.000           0.000    39389760.463   166670967.306         124.862          44.250           0.000           0.000           0.000           0.000  
C07  40380068.577   210269616.526       -1490.212          42.000           0.000           0.000           0.000           0.000    40380053.521   162593743.064       -1152.995          41.000           0.000           0.000           0.000           0.000    40380051.973   170861213.277       -1211.046          39.000           0.000           0.000           0.000           0.000  
C08  35781486.740   186323591.588          11.803          45.500           0.000           0.000           0.000           0.000    35781467.239   144077141.959           8.915          48.500           0.000           0.000           0.000           0.000    35781467.825   151403101.632           9.834          47.750           0.000           0.000           0.000           0.000  
C10  39106191.980   203636197.583       -1446.050          40.000           0.000           0.000           0.000           0.000    39106178.138   157464372.559       -1118.177          44.250           0.000           0.000           0.000           0.000    39106176.787   165471029.973       -1175.104          43.500           0.000           0.000           0.000           0.000  
C11  22233483.554   115775583.970        1828.474          48.500           0.000           0.000           0.000           0.000    22233467.238    89524958.412        1414.013          52.500           0.000           0.000           0.000           0.000    22233467.165    94077075.950        1485.949          52.000           0.000           0.000           0.000           0.000  
C12  21781309.090   113420993.504       -1259.782          47.500           0.000           0.000           0.000           0.000    21781293.089    87704241.449        -974.321          52.250           0.000           0.000           0.000           0.000    21781293.626    92163780.933       -1023.727          52.250           0.000           0.000           0.000           0.000  
C13  35948449.531   187193012.113         297.508          49.000           0.000           0.000           0.000           0.000    35948437.712   144749462.212         230.075          48.750           0.000           0.000           0.000           0.000    35948437.383   152109601.577         242.175          49.250           0.000           0.000           0.000           0.000  
C21  23288698.469   121270364.932        2382.546          50.250           0.000           0.000           0.000           0.000           0.000           0.000           0.000           0.000           0.000           0.000           0.000           0.000    23288681.082    98542029.251        1936.107          52.000           0.000           0.000           0.000           0.000  
C22  23052092.974   120038300.718        -841.877          47.750           0.000           0.000           0.000           0.000           0.000           0.000           0.000           0.000           0.000           0.000           0.000           0.000    23052074.705    97540871.598        -684.126          50.250           0.000           0.000           0.000           0.000  
C34  21576615.484   112355107.799         527.821          50.750           0.000           0.000           0.000           0.000           0.000           0.000           0.000           0.000           0.000           0.000           0.000           0.000    21576602.594    91297666.928         428.974          52.000           0.000           0.000           0.000           0.000  
> 2023  9  8  1 50 16.0000000  0 26
G05  20426053.123   107339633.392        1140.231          49.750           0.000           0.000           0.000           0.000    20426051.439    83641266.199         888.200          49.000           0.000           0.000           0.000           0.000           0.000           0.000           0.000           0.000           0.000           0.000           0.000           0.000  
G11  22280134.395   117082895.680       -2623.606          47.250           0.000           0.000           0.000           0.000    22280134.827    91233426.457       -2044.466          43.000           0.000           0.000           0.000           0.000           0.000           0.000           0.000           0.000           0.000           0.000           0.000           0.000  
G18  24426960.041   128364542.732        3433.319          41.500           0.000           0.000           0.000           0.000    24426959.068   100024298.156        2676.015          38.250           0.000           0.000           0.000           0.000           0.000           0.000           0.000           0.000    24426960.274    95856639.049        2564.098          44.250  
G20  20801298.808   109311559.783       -1250.690          46.750           0.000           0.000           0.000           0.000    20801297.947    85177838.297        -974.566          43.000           0.000           0.000           0.000           0.000           0.000           0.000           0.000           0.000           0.000           0.000           0.000           0.000  
G25  23300872.583   122446915.651       -3224.377          42.000           0.000           0.000           0.000           0.000    23300874.662    95413191.153       -2513.243          43.000           0.000           0.000           0.000           0.000           0.000           0.000           0.000           0.000    23300871.613    91437625.004       -2408.365          47.500  
G29  20778480.472   109191654.194        1214.797          48.250           0.000           0.000           0.000           0.000    20778478.358    85084391.608         946.365          46.750           0.000           0.000           0.000           0.000           0.000           0.000           0.000           0.000           0.000           0.000           0.000           0.000  
E02  27751849.105   145836952.218       -3152.784          42.250    27751850.711   108904224.585       -2354.610          44.000    27751850.335   111745200.024       -2416.109          42.500  
E04         0.000           0.000           0.000           0.000    26851005.437   105369114.718        -852.701          34.500    26851005.857   108117877.694        -873.498          35.500  
E05  27415811.822   144071074.580        3233.086          41.250    27415815.527   107585548.634        2414.671          47.000    27415815.081   110392125.839        2477.609          47.000  
E09  25649324.679   134788112.137        1515.433          45.500    25649324.128   100653457.676        1131.279          49.500    25649324.147   103279197.708        1161.410          49.750  
E15  27265413.851   143280712.775        2710.732          40.250    27265414.762   106995344.887        2023.935          40.750    27265414.583   109786525.414        2077.027          39.750  
E27  26345533.502   138446715.018        1066.096          37.000    26345532.341   103385527.916         795.935          41.250    26345532.437   106082542.355         816.713          41.000  
E30  25642568.153   134752600.637       -1724.726          42.750    25642566.901   100626940.817       -1288.018          45.500    25642567.070   103251992.115       -1321.460          46.000  
C02  38886533.433   202492385.375         146.752          41.000           0.000           0.000           0.000           0.000    38886515.385   156579882.637         114.041          47.250           0.000           0.000           0.000           0.000    38886519.283   164541589.568         119.380          44.000           0.000           0.000           0.000           0.000  
C03  39056566.885   203377795.210         120.393          44.250           0.000           0.000           0.000           0.000    39056550.538   157264543.918          92.667          45.500           0.000           0.000           0.000           0.000    39056552.550   165261056.144          97.844          44.750           0.000           0.000           0.000           0.000  
C05  39389744.406   205112730.494         154.832          40.500           0.000           0.000           0.000           0.000    39389727.927   158606108.700         119.148          45.250           0.000           0.000           0.000           0.000    39389730.508   166670840.512         125.270          44.250           0.000           0.000           0.000           0.000  
C07  40380354.574   210271105.943       -1489.949          43.250           0.000           0.000           0.000           0.000    40380339.580   162594894.818       -1152.302          43.250           0.000           0.000           0.000           0.000    40380338.012   170862423.660       -1211.470          40.500           0.000           0.000           0.000           0.000  
C08  35781483.807   186323576.375          11.406          45.250           0.000           0.000           0.000           0.000    35781464.303   144077130.170           9.150          48.250           0.000           0.000           0.000           0.000    35781464.910   151403089.279           9.315          47.500           0.000           0.000           0.000           0.000  
C10  39106469.354   203637641.998       -1446.386          40.750           0.000           0.000           0.000           0.000    39106455.513   157465489.459       -1117.825          46.000           0.000           0.000           0.000           0.000    39106454.176   165472203.672       -1175.115          44.250           0.000           0.000           0.000           0.000  
C11  22233131.769   115773752.118        1829.044          48.000           0.000           0.000           0.000           0.000    22233115.468    89523541.960        1413.633          51.250           0.000           0.000           0.000           0.000    22233115.388    94075587.431        1486.245          51.000           0.000           0.000           0.000           0.000  
C12  21781550.508   113422250.701       -1260.469          47.750           0.000           0.000           0.000           0.000    21781534.523    87705213.593        -974.796          52.750           0.000           0.000           0.000           0.000    21781535.063    92164802.534       -1024.649          52.250           0.000           0.000           0.000           0.000  
C13  35948391.658   187192710.755         297.989          48.500           0.000           0.000           0.000           0.000    35948379.820   144749229.179         230.488          48.500           0.000           0.000           0.000           0.000    35948379.525   152109356.738         241.661          48.750           0.000           0.000           0.000           0.000  
C21  23288240.477   121267980.045        2382.010          50.750           0.000           0.000           0.000           0.000           0.000           0.000           0.000           0.000           0.000           0.000           0.000           0.000    23288223.105    98540091.363        1935.375          52.500           0.000           0.000           0.000           0.000  
C22  23052254.365   120039141.136        -843.179          48.250           0.000           0.000           0.000           0.000           0.000           0.000           0.000           0.000           0.000           0.000           0.000           0.000    23052236.105    97541554.502        -685.070          50.000           0.000           0.000           0.000           0.000  
C23  25924703.611   134996734.744       -1531.495          39.250           0.000           0.000           0.000           0.000           0.000           0.000           0.000           0.000           0.000           0.000           0.000           0.000    25924683.078   109695817.524       -1244.372          36.750           0.000           0.000           0.000           0.000  
C34  21576513.416   112354576.301         528.033          50.250           0.000           0.000           0.000           0.000           0.000           0.000           0.000           0.000           0.000           0.000           0.000           0.000    21576500.531    91297235.092         428.298          51.250           0.000           0.000           0.000           0.000  
> 2023  9  8  1 50 17.0000000  0 26
G05  20425835.511   107338489.807        1139.974          49.750           0.000           0.000           0.000           0.000    20425833.825    83640375.086         888.373          48.750           0.000           0.000           0.000           0.000           0.000           0.000           0.000           0.000           0.000           0.000           0.000           0.000  
G11  22280633.187   117085516.838       -2623.880          46.500           0.000           0.000           0.000           0.000    22280633.599    91235468.902       -2044.723          42.500           0.000           0.000           0.000           0.000           0.000           0.000           0.000           0.000           0.000           0.000           0.000           0.000  
G18  24426306.462   128361107.998        3433.514          42.250           0.000           0.000           0.000           0.000    24426305.698   100021621.776        2674.803          40.000           0.000           0.000           0.000           0.000           0.000           0.000           0.000           0.000    24426306.697    95854074.167        2563.539          45.000  
G20  20801536.199   109312807.301       -1250.774          46.750           0.000           0.000           0.000           0.000    20801535.346    85178810.386        -974.633          43.000           0.000           0.000           0.000           0.000           0.000           0.000           0.000           0.000           0.000           0.000           0.000           0.000  
G25  23301485.923   122450138.789       -3224.628          42.250           0.000           0.000           0.000           0.000    23301487.996    95415702.691       -2513.143          43.250           0.000           0.000           0.000           0.000           0.000           0.000           0.000           0.000    23301484.969    91440031.915       -2408.645          47.500  
G29  20778248.627   109190435.811        1214.780          48.000           0.000           0.000           0.000           0.000    20778246.536    85083442.240         946.225          47.000           0.000           0.000           0.000           0.000           0.000           0.000           0.000           0.000           0.000           0.000           0.000           0.000  
E02  27752448.977   145840104.318       -3152.890          42.250    27752450.539   108906578.431       -2354.973          44.500    27752450.143   111747615.215       -2416.226          43.750  
E04         0.000           0.000           0.000           0.000    26851225.354   105369975.531        -852.662          31.500    26851225.742   108118758.721        -874.487          33.750  
E05  27415196.336   144067840.149        3232.868          41.000    27415200.041   107583133.333        2414.425          46.500    27415199.577   110389647.506        2477.559          46.750  
E09  25649035.898   134786594.622        1514.908          45.000    25649035.352   100652324.451        1131.452          48.500    25649035.365   103278034.928        1160.896          49.500  
E15  27264897.805   143278000.917        2710.145          40.500    27264898.730   106993319.780        2023.873          41.250    27264898.542   109784447.512        2076.541          40.750  
E27  26345330.370   138445647.213        1065.331          36.500    26345329.149   103384730.530         795.494          41.000    26345329.218   106081724.190         816.176          40.750  
E30  25642895.929   134754323.037       -1724.916          43.250    25642894.657   100628227.038       -1288.331          46.000    25642894.841   103253311.883       -1321.812          46.750  
C02  38886504.724   202492235.912         147.321          41.500           0.000           0.000           0.000           0.000    38886486.692   156579767.061         114.214          48.000           0.000           0.000           0.000           0.000    38886490.573   164541468.100         119.967          44.500           0.000           0.000           0.000           0.000  
C03  39056543.440   203377673.178         120.315          44.000           0.000           0.000           0.000           0.000    39056527.083   157264449.508          93.282          46.000           0.000           0.000           0.000           0.000    39056529.114   165260956.980          97.956          44.500           0.000           0.000           0.000           0.000  
C05  39389714.348   205112574.128         154.720          41.000           0.000           0.000           0.000           0.000    39389697.909   158605987.796         119.266          45.000           0.000           0.000           0.000           0.000    39389700.476   166670713.444         125.611          44.000           0.000           0.000           0.000           0.000  
C07  40380640.588   210272595.274       -1490.318          43.250           0.000           0.000           0.000           0.000    40380625.583   162596046.436       -1152.504          44.000           0.000           0.000           0.000           0.000    40380623.989   170863633.816       -1210.940          42.000           0.000           0.000           0.000           0.000  
C08  35781480.819   186323560.887          12.194          45.500           0.000           0.000           0.000           0.000    35781461.330   144077118.205           9.575          48.750           0.000           0.000           0.000           0.000    35781461.933   151403076.709           9.739          47.500           0.000           0.000           0.000           0.000  
C10  39106746.670   203639086.172       -1445.620          42.000           0.000           0.000           0.000           0.000    39106732.863   157466606.230       -1117.953          46.500           0.000           0.000           0.000           0.000    39106731.527   165473377.240       -1175.076          44.250           0.000           0.000           0.000           0.000  
C11  22232779.962   115771920.156        1828.877          47.750           0.000           0.000           0.000           0.000    22232763.667    89522125.371        1413.923          51.750           0.000           0.000           0.000           0.000    22232763.589    94074098.841        1485.960          51.250           0.000           0.000           0.000           0.000  
C12  21781791.954   113423508.002       -1260.246          48.000           0.000           0.000           0.000           0.000    21781775.980    87706185.821        -974.679          53.000           0.000           0.000           0.000           0.000    21781776.506    92165824.193       -1024.370          52.500           0.000           0.000           0.000           0.000  
C13  35948333.734   187192409.112         298.548          49.000           0.000           0.000           0.000           0.000    35948321.889   144748995.932         231.030          49.000           0.000           0.000           0.000           0.000    35948321.599   152109111.648         242.075          48.750           0.000           0.000           0.000           0.000  
C21  23287782.523   121265595.371        2381.976          51.000           0.000           0.000           0.000           0.000           0.000           0.000           0.000           0.000           0.000           0.000           0.000           0.000    23287765.156    98538153.618        1935.487          52.750           0.000           0.000           0.000           0.000  
C22  23052415.829   120039981.903        -843.447          47.750           0.000           0.000           0.000           0.000           0.000           0.000           0.000           0.000           0.000           0.000           0.000           0.000    23052397.562    97542237.693        -685.417          49.750           0.000           0.000           0.000           0.000  
C23  25924997.606   134998265.482       -1532.484          40.750           0.000           0.000           0.000           0.000           0.000           0.000           0.000           0.000           0.000           0.000           0.000           0.000    25924977.025   109697061.403       -1245.283          38.250           0.000           0.000           0.000           0.000  
C34  21576411.357   112354044.836         528.312          51.000           0.000           0.000           0.000           0.000           0.000           0.000           0.000           0.000           0.000           0.000           0.000           0.000    21576398.475    91296803.240         428.857          52.000           0.000           0.000           0.000           0.000  
> 2023  9  8  1 50 18.0000000  0 26
G05  20425618.030   107337346.915        1139.728          49.750           0.000           0.000           0.000           0.000    20425616.339    83639484.531         888.183          49.000           0.000           0.000           0.000           0.000           0.000           0.000           0.000           0.000           0.000           0.000           0.000           0.000  
G11  22281131.992   117088138.100       -2622.595          46.000           0.000           0.000           0.000           0.000    22281132.402    91237511.466       -2043.717          42.000           0.000           0.000           0.000           0.000           0.000           0.000           0.000           0.000           0.000           0.000           0.000           0.000  
G18  24425652.956   128357673.725        3432.827          41.750           0.000           0.000           0.000           0.000    24425652.363   100018945.677        2674.775          41.500           0.000           0.000           0.000           0.000           0.000           0.000           0.000           0.000    24425653.154    95851509.556        2563.562          46.000  
G20  20801773.703   109314055.309       -1250.416          46.500           0.000           0.000           0.000           0.000    20801772.848    85179782.870        -974.354          43.000           0.000           0.000           0.000           0.000           0.000           0.000           0.000           0.000           0.000           0.000           0.000           0.000  
G25  23302099.401   122453362.556       -3225.567          42.750           0.000           0.000           0.000           0.000    23302101.421    95418214.718       -2513.718          42.750           0.000           0.000           0.000           0.000           0.000           0.000           0.000           0.000    23302098.424    91442439.261       -2408.941          48.000  
G29  20778016.919   109189218.126        1214.534          48.000           0.000           0.000           0.000           0.000    20778014.835    85082493.399         946.253          47.500           0.000           0.000           0.000           0.000           0.000           0.000           0.000           0.000           0.000           0.000           0.000           0.000  
E02  27753048.883   145843256.810       -3153.382          42.250    27753050.442   108908932.527       -2355.023          43.750    27753050.036   111750030.755       -2416.891          42.750  
E04         0.000           0.000           0.000           0.000    26851449.507          -0.000           0.000          30.500    26851447.433          -0.000           0.000          31.000  
E05  27414580.819   144064605.917        3233.243          39.750    27414584.587   107580718.165        2414.693          46.250    27414584.129   110387169.357        2477.688          46.750  
E09  25648747.204   134785077.481        1515.841          44.750    25648746.652   100651191.549        1131.709          48.000    25648746.668   103276872.464        1161.304          48.750  
E15  27264381.790   143275289.435        2710.072          40.250    27264382.739   106991294.976        2023.773          42.000    27264382.545   109782369.854        2076.608          41.750  
E27  26345127.235   138444580.022        1065.453          37.500    26345126.063   103383933.594         795.768          41.250    26345126.135   106080906.468         816.316          41.250  
E30  25643223.818   134756046.111       -1725.340          43.500    25643222.546   100629513.730       -1288.420          47.000    25643222.730   103254632.169       -1322.371          47.250  
C02  38886476.062   202492086.685         146.964          41.750           0.000           0.000           0.000           0.000    38886458.037   156579651.664         114.142          47.500           0.000           0.000           0.000           0.000    38886461.917   164541346.862         119.604          44.500           0.000           0.000           0.000           0.000  
C03  39056520.016   203377551.258         120.639          43.750           0.000           0.000           0.000           0.000    39056503.657   157264355.249          93.405          45.500           0.000           0.000           0.000           0.000    39056505.716   165260857.929          98.241          44.750           0.000           0.000           0.000           0.000  
C05  39389684.346   205112418.097         154.530          41.500           0.000           0.000           0.000           0.000    39389667.925   158605867.153         118.657          44.750           0.000           0.000           0.000           0.000    39389670.506   166670586.649         125.303          43.500           0.000           0.000           0.000           0.000  
C07  40380926.679   210274084.856       -1490.363          42.250           0.000           0.000           0.000           0.000    40380911.612   162597198.265       -1152.381          44.250           0.000           0.000           0.000           0.000    40380910.041   170864844.227       -1211.202          43.000           0.000           0.000           0.000           0.000  
C08  35781477.864   186323545.524          12.602          45.500           0.000           0.000           0.000           0.000    35781458.388   144077106.336           9.563          48.750           0.000           0.000           0.000           0.000    35781458.971   151403064.218          10.164          47.750           0.000           0.000           0.000           0.000  
C10  39107024.095   203640530.726       -1446.078          42.000           0.000           0.000           0.000           0.000    39107010.276   157467723.241       -1118.138          46.000           0.000           0.000           0.000           0.000    39107008.921   165474551.016       -1175.311          44.250           0.000           0.000           0.000           0.000  
C11  22232428.245   115770088.644        1828.826          47.500           0.000           0.000           0.000           0.000    22232411.957    89520709.143        1413.884          52.250           0.000           0.000           0.000           0.000    22232411.865    94072610.591        1486.089          51.500           0.000           0.000           0.000           0.000  
